{"type":"FeatureCollection","features":[{"type":"Feature","geometry":{"type":"Point","coordinates":[-122.2642631,46.87345126]},"properties":{"Name":"Eatonville","County":"Pierce"}},{"type":"Feature","geometry":{"type":"Point","coordinates":[-122.3074563,47.05288861]},"properties":{"Name":"Graham","County":"Pierce"}},{"type":"Feature","geometry":{"type":"Point","coordinates":[-122.4355065,47.13234635]},"properties":{"Name":"Parkland/Spanaway","County":"Pierce"}},{"type":"Feature","geometry":{"type":"Point","coordinates":[-122.2019094,47.09709231]},"properties":{"Name":"Orting","County":"Pierce"}},{"type":"Feature","geometry":{"type":"Point","coordinates":[-122.2937197,47.11614695]},"properties":{"Name":"South Hill","County":"Pierce"}},{"type":"Feature","geometry":{"type":"Point","coordinates":[-122.3598786,47.15495512]},"properties":{"Name":"Summit","County":"Pierce"}},{"type":"Feature","geometry":{"type":"Point","coordinates":[-122.1818387,47.17570149]},"properties":{"Name":"Bonney Lake","County":"Pierce"}},{"type":"Feature","geometry":{"type":"Point","coordinates":[-122.0292269,47.16259479]},"properties":{"Name":"Buckley","County":"Pierce"}},{"type":"Feature","geometry":{"type":"Point","coordinates":[-122.3406367,47.23885305]},"properties":{"Name":"Fife","County":"Pierce"}},{"type":"Feature","geometry":{"type":"Point","coordinates":[-122.2956274,47.24729984]},"properties":{"Name":"Milton/Edgewood","County":"Pierce"}},{"type":"Feature","geometry":{"type":"Point","coordinates":[-122.2443681,47.20501094]},"properties":{"Name":"Sumner","County":"Pierce"}},{"type":"Feature","geometry":{"type":"Point","coordinates":[-122.6902018,47.17381812]},"properties":{"Name":"Anderson Island","County":"Pierce"}},{"type":"Feature","geometry":{"type":"Point","coordinates":[-122.6442802,47.09170994]},"properties":{"Name":"DuPont","County":"Pierce"}},{"type":"Feature","geometry":{"type":"Point","coordinates":[0,0]},"properties":{"Name":"Gig Harbor","County":"Pierce"}},{"type":"Feature","geometry":{"type":"Point","coordinates":[0,0]},"properties":{"Name":"Key Center","County":"Pierce"}},{"type":"Feature","geometry":{"type":"Point","coordinates":[0,0]},"properties":{"Name":"Lakewood","County":"Pierce"}},{"type":"Feature","geometry":{"type":"Point","coordinates":[0,0]},"properties":{"Name":"Steilacoom","County":"Pierce"}},{"type":"Feature","geometry":{"type":"Point","coordinates":[0,0]},"properties":{"Name":"Tillicum","County":"Pierce"}},{"type":"Feature","geometry":{"type":"Point","coordinates":[0,0]},"properties":{"Name":"University Place","County":"Pierce"}},{"type":"Feature","geometry":{"type":"Point","coordinates":[0,0]},"properties":{"Name":"Algona-Pacific","County":"King"}},{"type":"Feature","geometry":{"type":"Point","coordinates":[0,0]},"properties":{"Name":"Auburn","County":"King"}},{"type":"Feature","geometry":{"type":"Point","coordinates":[0,0]},"properties":{"Name":"Bellevue","County":"King"}},{"type":"Feature","geometry":{"type":"Point","coordinates":[0,0]},"properties":{"Name":"Black Diamond","County":"King"}},{"type":"Feature","geometry":{"type":"Point","coordinates":[0,0]},"properties":{"Name":"Bothell","County":"King"}},{"type":"Feature","geometry":{"type":"Point","coordinates":[0,0]},"properties":{"Name":"Boulevard Park","County":"King"}},{"type":"Feature","geometry":{"type":"Point","coordinates":[0,0]},"properties":{"Name":"Burien","County":"King"}},{"type":"Feature","geometry":{"type":"Point","coordinates":[0,0]},"properties":{"Name":"Carnation","County":"King"}},{"type":"Feature","geometry":{"type":"Point","coordinates":[0,0]},"properties":{"Name":"Covington","County":"King"}},{"type":"Feature","geometry":{"type":"Point","coordinates":[0,0]},"properties":{"Name":"Crossroads","County":"King"}},{"type":"Feature","geometry":{"type":"Point","coordinates":[0,0]},"properties":{"Name":"Des Moines","County":"King"}},{"type":"Feature","geometry":{"type":"Point","coordinates":[0,0]},"properties":{"Name":"Duvall","County":"King"}},{"type":"Feature","geometry":{"type":"Point","coordinates":[0,0]},"properties":{"Name":"Enumclaw","County":"King"}},{"type":"Feature","geometry":{"type":"Point","coordinates":[0,0]},"properties":{"Name":"Fairwood","County":"King"}},{"type":"Feature","geometry":{"type":"Point","coordinates":[0,0]},"properties":{"Name":"Fall City","County":"King"}},{"type":"Feature","geometry":{"type":"Point","coordinates":[0,0]},"properties":{"Name":"Federal Way","County":"King"}},{"type":"Feature","geometry":{"type":"Point","coordinates":[0,0]},"properties":{"Name":"Federal Way 320th","County":"King"}},{"type":"Feature","geometry":{"type":"Point","coordinates":[0,0]},"properties":{"Name":"Greenbridge","County":"King"}},{"type":"Feature","geometry":{"type":"Point","coordinates":[0,0]},"properties":{"Name":"Issaquah","County":"King"}},{"type":"Feature","geometry":{"type":"Point","coordinates":[0,0]},"properties":{"Name":"Kenmore","County":"King"}},{"type":"Feature","geometry":{"type":"Point","coordinates":[0,0]},"properties":{"Name":"Kent","County":"King"}},{"type":"Feature","geometry":{"type":"Point","coordinates":[0,0]},"properties":{"Name":"Kent Panther Lake","County":"King"}},{"type":"Feature","geometry":{"type":"Point","coordinates":[0,0]},"properties":{"Name":"Kingsgate","County":"King"}},{"type":"Feature","geometry":{"type":"Point","coordinates":[0,0]},"properties":{"Name":"Kirkland","County":"King"}},{"type":"Feature","geometry":{"type":"Point","coordinates":[0,0]},"properties":{"Name":"Lake Forest Park","County":"King"}},{"type":"Feature","geometry":{"type":"Point","coordinates":[0,0]},"properties":{"Name":"Lake Hills","County":"King"}},{"type":"Feature","geometry":{"type":"Point","coordinates":[0,0]},"properties":{"Name":"Maple Valley","County":"King"}},{"type":"Feature","geometry":{"type":"Point","coordinates":[0,0]},"properties":{"Name":"Mercer Island","County":"King"}},{"type":"Feature","geometry":{"type":"Point","coordinates":[0,0]},"properties":{"Name":"Muckleshoot","County":"King"}},{"type":"Feature","geometry":{"type":"Point","coordinates":[0,0]},"properties":{"Name":"Newcastle","County":"King"}},{"type":"Feature","geometry":{"type":"Point","coordinates":[0,0]},"properties":{"Name":"Newport Way","County":"King"}},{"type":"Feature","geometry":{"type":"Point","coordinates":[0,0]},"properties":{"Name":"North Bend","County":"King"}},{"type":"Feature","geometry":{"type":"Point","coordinates":[0,0]},"properties":{"Name":"Redmond","County":"King"}},{"type":"Feature","geometry":{"type":"Point","coordinates":[0,0]},"properties":{"Name":"Redmond Ridge Express","County":"King"}},{"type":"Feature","geometry":{"type":"Point","coordinates":[0,0]},"properties":{"Name":"Renton","County":"King"}},{"type":"Feature","geometry":{"type":"Point","coordinates":[0,0]},"properties":{"Name":"Renton Highlands","County":"King"}},{"type":"Feature","geometry":{"type":"Point","coordinates":[0,0]},"properties":{"Name":"Richmond Beach","County":"King"}},{"type":"Feature","geometry":{"type":"Point","coordinates":[0,0]},"properties":{"Name":"Sammamish","County":"King"}},{"type":"Feature","geometry":{"type":"Point","coordinates":[0,0]},"properties":{"Name":"Shoreline","County":"King"}},{"type":"Feature","geometry":{"type":"Point","coordinates":[0,0]},"properties":{"Name":"Skykomish","County":"King"}},{"type":"Feature","geometry":{"type":"Point","coordinates":[0,0]},"properties":{"Name":"Skyway","County":"King"}},{"type":"Feature","geometry":{"type":"Point","coordinates":[0,0]},"properties":{"Name":"Snoqualmie","County":"King"}},{"type":"Feature","geometry":{"type":"Point","coordinates":[0,0]},"properties":{"Name":"Southcenter","County":"King"}},{"type":"Feature","geometry":{"type":"Point","coordinates":[0,0]},"properties":{"Name":"Tukwila","County":"King"}},{"type":"Feature","geometry":{"type":"Point","coordinates":[0,0]},"properties":{"Name":"Valley View","County":"King"}},{"type":"Feature","geometry":{"type":"Point","coordinates":[0,0]},"properties":{"Name":"Vashon","County":"King"}},{"type":"Feature","geometry":{"type":"Point","coordinates":[0,0]},"properties":{"Name":"White Center","County":"King"}},{"type":"Feature","geometry":{"type":"Point","coordinates":[0,0]},"properties":{"Name":"Woodinville","County":"King"}},{"type":"Feature","geometry":{"type":"Point","coordinates":[0,0]},"properties":{"Name":"Woodmont","County":"King"}}]}